{
  "type": "FeatureCollection",
  "name": "launch_locations",
  "crs": {
    "type": "name",
    "properties": {
      "name": "urn:ogc:def:crs:OGC:1.3:CRS84"
    }
  },
  "features": [
    {
      "type": "Feature",
      "properties": {
        "name": "Valley Elementary School",
        "phone": 2402363000,
        "address": "3519 Jefferson Pike, Jefferson, MD 21755",
        "url": "<a href='https:\/\/education.fcps.org\/ves\/home'>link<\/a>",
        "x": -77.547824,
        "y": 39.359031
      },
      "geometry": {
        "type": "Point",
        "coordinates": [
          -77.547824,
          39.359031
        ]
      }
    },
    {
      "type": "Feature",
      "properties": {
        "name": "Mt. Airy Elementary School",
        "phone": 4107513540,
        "address": "405 N Main St, Mt Airy, MD 21771",
        "url": "<a href='https:\/\/www.carrollk12.org\/schools\/elementary\/mae\/Pages\/default.aspx'>link<\/a>",
        "x": -77.14878,
        "y": 39.389586
      },
      "geometry": {
        "type": "Point",
        "coordinates": [
          -77.14878,
          39.389586
        ]
      }
    },
    {
      "type": "Feature",
      "properties": {
        "name": "Harpers Ferry Middle School",
        "phone": 3045356357,
        "address": "1710 West Washington Street, Harpers Ferry, WV 25425",
        "url": "<a href='https:\/\/hfms.jeff.k12.wv.us'>link<\/a>",
        "x": -77.756622,
        "y": 39.323833
      },
      "geometry": {
        "type": "Point",
        "coordinates": [
          -77.756622,
          39.323833
        ]
      }
    },
    {
      "type": "Feature",
      "properties": {
        "name": "Elmer Wolfe Elementary School",
        "phone": 4107513000,
        "address": "125 North Court Street, Union Bridge, MD 21157",
        "url": "<a href='https:\/\/www.carrollk12.org\/schools\/elementary\/ewe\/Pages\/default.aspx'>link<\/a>",
        "x": -77.17722,
        "y": 39.57615
      }, "geometry": {
        "type": "Point",
        "coordinates": [
          -77.17722,
          39.57615
        ]
      }
    },
    {
      "type": "Feature",
      "properties": {
        "name": "Westminster Elementary School",
        "phone": 4107513222,
        "address": "​​811 Uniontown Road, Westminster, MD 21158",
        "url": "<a href='https:\/\/www.carrollk12.org\/schools\/elementary\/wes\/Pages\/default.asp'>link<\/a>",
        "x": -77.025882,
        "y": 39.579275
      },
      "geometry": {
        "type": "Point",
        "coordinates": [
          -77.025882,
          39.579275
        ]
      }
    },
    {
      "type": "Feature",
      "properties": {
        "name": "Emittsburg Elementary School",
        "phone": 2402361750,
        "address": "300 South Seton Avenue, Emmitsburg, MD 21727",
        "url": "<a href='https:\/\/education.fcps.org\/ees'>link<\/a>",
        "x": -77.329201,
        "y": 39.703497
      },
      "geometry": {
        "type": "Point",
        "coordinates": [
          -77.329201,
          39.703497
        ]
      }
    },
    {
      "type": "Feature",
      "properties": {
        "name": "Hagerstown Community College",
        "phone": 2405002238,
        "address": "11400 Robinwood Drive, Hagerstown, MD 21742",
        "url": "<a href='http:\/\/www.hagerstowncc.edu'>link<\/a>",
        "x": -77.672274,
        "y": 39.629549
      },
      "geometry": {
        "type": "Point",
        "coordinates": [
          -77.672274,
          39.629549
        ]
      }
    },
    {
      "type": "Feature",
      "properties": {
        "name": "Clear Spring Elementary School",
        "phone": 3017668074,
        "address": "12627 Broadfording Road, Clear Spring, MD 21722",
        "url": "<a href='http:\/\/wcpsmd.com\/schools\/elementary-schools\/clear-spring-elementary'>link<\/a>",
        "x": -77.934144,
        "y": 39.657178
      },
      "geometry": {
        "type": "Point",
        "coordinates": [
          -77.934144,
          39.657178
        ]
      }
    },
    {
      "type": "Feature",
      "properties": {
        "name": "James Wood High School",
        "phone": 5406675226,
        "address": "161 Apple Pie Ridge Road, Winchester, VA 22603",
        "url": "<a href='https:\/\/jwh.frederick.k12.va.us'>link<\/a>",
        "x": -78.18307,
        "y": 39.21205
      },
      "geometry": {
        "type": "Point",
        "coordinates": [
          -78.18307,
          39.21205
        ]
      }
    },
    {
      "type": "Feature",
      "properties": {
        "name": "Hancock Elementary School",
        "phone": 3017668178,
        "address": "289 West Main Street, Hancock, MD 21750",
        "url": "<a href='http:\/\/wcpsmd.com\/schools\/high-schools\/hancock-high'>link<\/a>",
        "x": -78.19681,
        "y": 39.696802
      },
      "geometry": {
        "type": "Point",
        "coordinates": [
          -78.19681,
          39.696802
        ]
      }
    },
    {
      "type": "Feature",
      "properties": {
        "name": "Washington High School",
        "phone": 3048855110,
        "address": "300 Washington Patriot Drive, Charles Town, WV 25414",
        "url": "<a href='https:\/\/whs.jeff.k12.wv.us'>link<\/a>",
        "x": -77.880121,
        "y": 39.259932
      },
      "geometry": {
        "type": "Point",
        "coordinates": [
          -77.880121,
          39.259932
        ]
      }
    },
    {
      "type": "Feature",
      "properties": {
        "name": "James Buchanan Middle School",
        "phone": 7173285221,
        "address": "5191 Fort Loudon Road, Mercersburg, PA 17236",
        "url": "",
        "x": -77.897955,
        "y": 39.850029
      },
      "geometry": {
        "type": "Point",
        "coordinates": [
          -77.897955,
          39.850029
        ]
      }
    },
    {
      "type": "Feature",
      "properties": {
        "name": "Benjamin Chambers Elementary School",
        "phone": 7172613442,
        "address": "481 North Franklin Street, Chambersburg, PA 17201",
        "url": "<a href='https:\/\/www.casdonline.org\/BenjaminChambers'>link<\/a>",
        "x": -77.667712,
        "y": 39.94419
      },
      "geometry": {
        "type": "Point",
        "coordinates": [
          -77.667712,
          39.94419
        ]
      }
    },
    {
      "type": "Feature",
      "properties": {
        "name": "Everett Area Elementary Schools",
        "phone": 8146529114,
        "address": "165 E 1st Avenue, Everett, PA 15537",
        "url": "<a href='https:\/\/www.everettasd.org'>link<\/a>",
        "x": -78.358934,
        "y": 40.004937
      },
      "geometry": {
        "type": "Point",
        "coordinates": [
          -78.358934,
          40.004937
        ]
      }
    },
    {
      "type": "Feature",
      "properties": {
        "name": "Waverly Elementary School",
        "phone": 4103132819,
        "address": "201 Waverley Drive, Frederick, MD 21702",
        "url": "<a href='https:\/\/education.fcps.org/waves'>link<\/a>",
        "x": -77.462469,
        "y": 39.427118
      },
      "geometry": {
        "type": "Point",
        "coordinates": [
          -77.462469,
          39.427118
        ]
      }
    },
    {
      "type": "Feature",
      "properties": {
        "name": "Martinsburg High School",
        "phone": 3042673530,
        "address": "701 South Queen Street, Martinsburg, WV 25401",
        "url": "<a href='https:\/\/www.berkeleycountyschools.org\/martinsburghigh'>link<\/a>",
        "x": -77.96837,
        "y": 39.448438
      },
      "geometry": {
        "type": "Point",
        "coordinates": [
          -77.96837,
          39.448438
        ]
      }
    }
  ]
}
